[  {
  "type": "Feature",
  "properties": {
    "title": "",
    "quadrant":"",
    "address": "",
    "description": " ",
    "fenced":"",
    "riverAccess":" ",
    "agilityEquiptment":" "
  },
  "geometry": {
    "coordinates": ["long, lat"],
    "type": "Point"
  }
},
   {
  "type": "Feature",
  "properties": {
    "title": "Tom Campbell's Hill ",
    "quadrant":"NE",
    "address": "1638 CENTRE AV NE",
    "description": "Off leash dog park in NE Calagry, great scenic walks and large open space.",
    "fenced":"Partially",
    "riverAccess":"false",
    "agilityEquiptment":"false"
  },
  "geometry": {
    "coordinates": [-114.02837850019208, 51.052856851088826],
    "type": "Point"
  }
},
{
  "type": "Feature",
  "properties": {
    "title":  "Richmond",
    "quadrant":"SW",
    "address": "2001 22 ST SW",
    "description": "Off leash dog area in SW Calagry, a neighborhood park.",
    "fenced":"Partially",
    "riverAccess":"false",
    "agilityEquiptment":"false"
  },
  "geometry": {
    "coordinates": [-114.11405788441903, 51.035946755992406],
    "type": "Point"
  }
},
{
  "type": "Feature",
  "properties": {
    "title": "Riverdale Off Leash Dog Park ",
    "quadrant":"SW",
    "address": "1334 Riverdale Ave SW",
    "description": "Off leash dog area in SW Calagry, a large open park with tall grass.",
    "fenced":"Fully",
    "riverAccess":"true",
    "agilityEquiptment":"false"
  },
  "geometry": {
    "coordinates": [-114.09175383095393, 51.015374395617506],
    "type": "Point"
  }
},
{
  "type": "Feature",
  "properties": {
    "title": "Riverbend",
    "quadrant":"SE",
    "address": "755 Riverbend DR SE",
    "description": " Off leash area in SE of Calgary, a small neighborhood off leash area.",
    "fenced":"None",
    "riverAccess":"false",
    "agilityEquiptment":"false"
  },
  "geometry": {
    "coordinates": [51.06251541265699,-114.08428562885467],
    "type": "Point"
  }
},
 {
  "type": "Feature",
  "properties": {
    "title": "McHugh Bluff",
    "quadrant":"NW",
    "address": "125 Crescent RD NW",
    "description": "Off leash dog area in NW Calagry, a great park for walks.",
    "fenced":"None",
    "riverAccess":"false",
    "agilityEquiptment":"false"
  },
  "geometry": {
    "coordinates": [-114.06480058772964, 51.05814774454506],
    "type": "Point"
  }
},
{
  "type": "Feature",
  "properties": {
    "title": "Rosedale & Sunnyside",
    "quadrant":"NW",
    "address": "1101 Crescent RD NW",
    "description": "Off leash dog area in NW Calagry, a large open neighborhood park, with lots of trees.",
    "fenced":"Partially",
    "riverAccess":"false",
    "agilityEquiptment":"false"
  },
  "geometry": {
    "coordinates": [-114.08427490001871, 51.0624749559971],
    "type": "Point"
  }
},
{
  "type": "Feature",
  "properties": {
    "title": "Roxboro & Erlton",
    "quadrant":"SW",
    "address": "3233 2 ST SW",
    "description": "Off leash dog area in SW Calagry, a neighborhood park with tons of trees and trials",
    "fenced":"None",
    "riverAccess":"false",
    "agilityEquiptment":"false"
  },
  "geometry": {
    "coordinates": [-114.06854990077699, 51.02514408831522],
    "type": "Point"
  }
},
{
  "type": "Feature",
  "properties": {
    "title": "Roxboro & Parkhill",
    "quadrant":"SW",
    "address": "300 33 Ave SW",
    "description": "Off leash dog area in SW Calagry, a neighborhood park.",
    "fenced":"None",
    "riverAccess":"false",
    "agilityEquiptment":"false"
  },
  "geometry": {
    "coordinates": [-114.06877000000408, 51.02395183902672],
    "type": "Point"
  }
},
{
  "type": "Feature",
  "properties": {
    "title": "Rundle Off Leash Park",
    "quadrant":"NE",
    "address": "333 Rundleridge Dr NE",
    "description": "Off leash dog area in NW Calagry, a large open neighborhood park.",
    "fenced":"Partially",
    "riverAccess":"false",
    "agilityEquiptment":"false"
  },
  "geometry": {
    "coordinates": [-113.97400489978574,51.06761853063458],
    "type": "Point"
  }
},
{
  "type": "Feature",
  "properties": {
    "title": "Sandstone Area 3",
    "quadrant":"NW",
    "address": "80 Sandarac Dr NW",
    "description": "Off leash dog park in NE Calagry,a small neighborhood strip.",
    "fenced":"None",
    "riverAccess":"false",
    "agilityEquiptment":"false"
  },
  "geometry": {
    "coordinates": [-114.09937781512771,51.13453482224594],
    "type": "Point"
  }
},
{
  "type": "Feature",
  "properties": {
    "title": "Sandstone Area 1",
    "quadrant":"NW",
    "address": "24 Sanderling Close NW",
    "description": " Off leash area in SE of Calgary, a small neighborhood park.",
    "fenced":"Partially",
    "riverAccess":"false",
    "agilityEquiptment":"false"
  },
  "geometry": {
    "coordinates": [-114.09587426909573, 51.14224163123172],
    "type": "Point"
  }
},
{
  "type": "Feature",
  "properties": {
    "title": "Sandstone Area 2  ",
    "quadrant":"NW",
    "address": "1880 Berkshire Blvd NW",
    "description": "Off leash dog area in NW Calagry, a neighborhood park.",
    "fenced":"None",
    "riverAccess":"false",
    "agilityEquiptment":"false"
  },
  "geometry": {
    "coordinates": [-114.10423713985674, 51.13216676468716],
    "type": "Point"
  }
},
  {
    "type": "Feature",
    "properties": {
      "title": "Summit off",
      "quadrant":"SW",
      "address": "1521 Summit ST SW",
      "description": "Off leash dog area in SW Calagry, a neighborhood park,",
      "fenced":"Partially",
      "riverAccess":"false",
      "agilityEquiptment":"false"
    },
    "geometry": {
      "coordinates": [ -114.11182798629449, 51.03930818752611],
      "type": "Point"
    }
  },
  {
    "type": "Feature",
    "properties": {
      "title": "Triangle Park",
      "quadrant":"SW",
      "address": "308 Sunderland Ave SW",
      "description": "Off leash dog area in NW Calagry, a neighborhood park,",
      "fenced":"None",
      "riverAccess":"false",
      "agilityEquiptment":"false"
    },
    "geometry": {
      "coordinates": [-114.10552718465614, 51.03914900443344],
      "type": "Point"
    }
  }, {
  "type": "Feature",
  "properties": {
    "title": "Scotia Point",
    "quadrant":"NW",
    "address": "61 Scotia Point",
    "description": "Off leash dog area in NW Calagry, tiny area, with no fencing",
    "fenced":"None",
    "riverAccess":"false",
    "agilityEquiptment":"false"
  },
  "geometry": {
    "coordinates": [-114.21600854396384, 51.12527832058669 ],
    "type": "Point"
  }
},{
  "type": "Feature",
  "properties": {
    "title": "Scenic Acres Off Leash Area 1",
    "quadrant":"NW",
    "address": "8018 Schubert Gate NW",
    "description": "Off leash dog area in NW Calagry, a large open neighborhood strip.",
    "fenced":"Partially",
    "riverAccess":"false",
    "agilityEquiptment":"false"
  },
  "geometry": {
    "coordinates": [ -114.22505556109576, 51.12515629260096],
    "type": "Point"
  }
},{
  "type": "Feature",
  "properties": {
    "title": "Scenic Acres Off Leash Area 2",
    "quadrant":"NW",
    "address": "4QF9+MX Calgary",
    "description": "Off leash dog area in NW Calagry, a large open neighborhood park,",
    "fenced":"Partially",
    "riverAccess":"false",
    "agilityEquiptment":"false"
  },
  "geometry": {
    "coordinates": [-114.23009328046602, 51.12431757598652],
    "type": "Point"
  }
}, {
  "type": "Feature",
  "properties": {
    "title": "Shaganappi Park",
    "quadrant":"SW",
    "address": "2608 14 Ave SW",
    "description": "Off leash dog park in NE Calagry, nice neighborhood park with a playground  ",
    "fenced":"None",
    "riverAccess":"false",
    "agilityEquiptment":"false"
  },
  "geometry": {
    "coordinates": [-114.12138323047438,51.03987328555146],
    "type": "Point"
  } 
},
 {
  "type": "Feature",
  "properties": {
    "title": "Silver Springs DR",
    "quadrant":"NW",
    "address": "37 Silver Springs Dr NW,",
    "description": " ",
    "fenced":"Partially",
    "riverAccess":"false",
    "agilityEquiptment":"false"
  },
  "geometry": {
    "coordinates": [-114.18532525408703, 51.105858488302864],
    "type": "Point"
  }
},
{ 
  "type": "Feature",
  "properties": {
    "title": "SILVER SPRINGS (BOWMONT PARK)",
    "quadrant":"NW",
    "address": "5520 Nose Hill DR NW",
    "description": "Off leash dog area in NW Calagry, very open park connected to other parks.",
    "fenced":"Fully",
    "riverAccess":"true",
    "agilityEquiptment":"false"
  },
  "geometry": {
    "coordinates": [-114.20959557170401, 51.10221255218166],
    "type": "Point"
  }
}, 
{
  "type": "Feature",
  "properties": {
    "title": "5020 Silver Springs Blvd",
    "quadrant":"NW",
    "address": "5020 Silver Springs Blvd NW",
    "description": "Off leash dog area in NW Calagry, a large open space.",
    "fenced":"None",
    "riverAccess":"false",
    "agilityEquiptment":"false"
  },
  "geometry": {
    "coordinates": [ -114.18936754012037, 51.10229802196919],
    "type": "Point"
  }
},
 {
  "type": "Feature",
  "properties": {
    "title": "Southland Park",
    "quadrant":"SW",
    "address": "1415 Southland DR SW",
    "description": "Off leash dog area in SW Calagry, a neighborhood park.",
    "fenced":"Partially",
    "riverAccess":"false",
    "agilityEquiptment":"false" 
  },
  "geometry": {
    "coordinates": [-114.09400027280468, 50.961435916999136],
    "type": "Point"
  }
},
  {
    "type": "Feature",
    "properties": {
      "title": "Southwood Park",
      "quadrant":"SW",
      "address": "1323 Southdale CR SW",
      "description": "Off leash dog area in SW Calagry, a large open neighborhood park.",
      "fenced":"Partially",
      "riverAccess":"false",
      "agilityEquiptment":"false"
    },
    "geometry": {
      "coordinates": [-114.09397671539577, 50.95162610610071],
      "type": "Point"
    }
  },
  { 
  "type": "Feature",
  "properties": {
    "title": "Lawrey Gardens Park",
    "quadrant":"SW",
    "address": "Bow River Pathway",
    "description": "Off leash dog area in SW Calagry, nice trails with river acces.",
    "fenced":"None",
    "riverAccess":"true",
    "agilityEquiptment":"false"
  },
  "geometry": {
    "coordinates": [-114.12805368473097, 51.052900271570664],
    "type": "Point"
  }
},
 {
  "type": "Feature",
  "properties": {
    "title": "Karl Baker",
    "quadrant":"NW",
    "address": "2840 8 AV NW",
    "description": "Off leash dog park in NW Calagry, very open neighborhood park.",
    "fenced":"None",
    "riverAccess":"false",
    "agilityEquiptment":"false" 
  },
  "geometry": {
    "coordinates": [-114.12860444211404, 51.059566376105344],
    "type": "Point"
  }
},
{
  "type": "Feature",
  "properties": {
    "title": "Strathcona Park Area 1",
    "quadrant":"SW",
    "address": "795 Strathcona DR SW",
    "description": "Off leash dog area in SW Calagry, a neighborhood park.",
    "fenced":"None",
    "riverAccess":"false",
    "agilityEquiptment":"false"
  },
  "geometry": {
    "coordinates": [-114.17420000163825, 51.04263838450698],
    "type": "Point"
  }
},
  {
    "type": "Feature",
    "properties": {
      "title": "Strathcona Park",
      "quadrant":"SW",
      "address": "111 Stratton CR SW",
      "description": "Off leash dog area in SW Calagry, a neighborhood park.",
      "fenced":"None",
      "riverAccess":"false",
      "agilityEquiptment":"false"
    },
    "geometry": {
      "coordinates": [-114.17532902657459, 51.047344364794824],
      "type": "Point"
    }
  },
   {
  "type": "Feature",
  "properties": {
    "title": "Strathcona & Christie Park",
    "quadrant":"SW",
    "address": "2RWP+42 Calgary",
    "description": "Off leash dog area in SW Calagry, a large open space.",
    "fenced":"None",
    "riverAccess":"false",
    "agilityEquiptment":"false"
  },
  "geometry": {
    "coordinates": [-114.16096055377224, 51.050160736096075],
    "type": "Point"
  }
},
  {
    "type": "Feature",
    "properties": {
      "title": "Sunalta Pumphouse Theatre",
      "quadrant":"SW",
      "address": "3P5, Bow River Pathway",
      "description": "Off leash dog area in SW Calagry, large open space with river access.",
      "fenced":"None",
      "riverAccess":"true",
      "agilityEquiptment":"false"
    },
    "geometry": {
      "coordinates": [-114.10897570489692,  51.04768797988762],
      "type": "Point"
    }
  },
  {
    "type": "Feature",
    "properties": {
      "title": "Sunalta Area 1",
      "quadrant":"SW",
      "address": "2WW3+JR Calgary",
      "description": "Off leash dog area in SW Calagry, tiny area, with no fencing.",
      "fenced":"None",
      "riverAccess":"false",
      "agilityEquiptment":"false"
    },
    "geometry": {
      "coordinates": [-114.09542845797249, 51.04677179569922],
      "type": "Point"
    } 
  },
  {
    "type": "Feature",
    "properties": {
      "title": "Taradale Off Leash Dog Park",
      "quadrant":"NE",
      "address": "4369+6P Calgary",
      "description": "Off leash dog park in NE Calagry, nice neighborhood fully fenced park.",
      "fenced":"Fully",
      "riverAccess":"false",
      "agilityEquiptment":"false"
    },
    "geometry": {
      "coordinates": [-113.93067728940052, 51.110638271165854],
      "type": "Point"
    }
  },
  {
    "type": "Feature",
    "properties": {
      "title": "Thorncliffe (Trollinger ST)",
      "quadrant":"NW",
      "address": "6036 Trollinger ST NE",
      "description": "Off leash dog park in NW Calagry, Community Cluster.",
      "fenced":"None",
      "riverAccess":"false",
      "agilityEquiptment":"false"
    },
    "geometry": {
      "coordinates": [ -114.05974583232418, 51.10540123719008],
      "type": "Point"
    }
  },
  {
    "type": "Feature",
    "properties": {
      "title": "Thorncliffe Area (Northmount DR)",
      "quadrant":"NW",
      "address": "280 Northmount DR NW",
      "description": "Off leash dog park in NW Calagry, Community Cluster.",
      "fenced":"None",
      "riverAccess":"false",
      "agilityEquiptment":"false"
    },
    "geometry": {
      "coordinates": [-114.07650801883197, 51.110430709153874],
      "type": "Point"
    }
  },
  {
    "type": "Feature",
    "properties": {
      "title": "Thorncliffe (Touchwood Dr)",
      "quadrant":"NW",
      "address": "6227 Touchwood DR NW",
      "description": "Off leash dog park in NW Calagry, Community Cluster.",
      "fenced":"None",
      "riverAccess":"false",
      "agilityEquiptment":"false"
    },
    "geometry": {
      "coordinates": [-114.07650801883197, 51.110430709153874],
      "type": "Point"
    }
  },
  {
    "type": "Feature",
    "properties": {
      "title": "Thorncliffe (63 Ave)",
      "quadrant":"NW",
      "address": "628 63 AV NW",
      "description": "Off leash dog park in NW Calagry, Community Cluster.",
      "fenced":"None",
      "riverAccess":"false",
      "agilityEquiptment":"false"
    },
    "geometry": {
      "coordinates": [-114.07650801883197, 51.110430709153874],
      "type": "Point"
    }
  },

  {
    "type": "Feature",
    "properties": {
      "title": "Thorncliffe & North Haven (Egert's Park)",
      "quadrant":"NW",
      "address": "151 Thames CL NW",
      "description": "Off leash dog park in NW Calagry, Community Cluster.",
      "fenced":"Partially",
      "riverAccess":"false",
      "agilityEquiptment":"false"
    },
    "geometry": {
      "coordinates": [-114.07977271327672, 51.105361446945594],
      "type": "Point"
    }
  },
  {
    "type": "Feature",
    "properties": {
      "title": "Thorncliffe & North Haven (Egert's Park)",
      "quadrant":"NW",
      "address": "980 48 AV NW",
      "description": "Off leash dog park in NW Calagry, Community Cluster.",
      "fenced":"Partially",
      "riverAccess":"false",
      "agilityEquiptment":"false"
    },
    "geometry": {
      "coordinates": [-114.0835841709488, 51.098289632937075],
      "type": "Point"
    }
  },
  {
    "type": "Feature",
    "properties": {
      "title": "Thorncliffe & skyline west & greenview (Layrock park)",
      "quadrant":"NE",
      "address": "448 Beaver Dam RD NE",
      "description": "Off leash dog park in NW Calagry,Community Cluster.",
      "fenced":"None",
      "riverAccess":"false",
      "agilityEquiptment":"false"
    },
    "geometry": {
      "coordinates": [-114.05397489973983, 51.103178611737206],
      "type": "Point"
    }
  },
  {
    "type": "Feature",
    "properties": {
      "title": "Tuscany Buffer & TucArea 2",
      "quadrant":"NW",
      "address": "4Q88+PG, Calgary",
      "description": "Off leash dog park in NW Calagry, neighborhood park.",
      "fenced":"None",
      "riverAccess":"false",
      "agilityEquiptment":"false"
    },
    "geometry": {
      "coordinates": [-114.23361239827972, 51.11692699251573],
      "type": "Point"
    }
  },
  {
    "type": "Feature",
    "properties": {
      "title": "12 Mile Coulee(Tuscany Area 1)",
      "quadrant":"NW",
      "address": "137 Tuscarora Pl NW",
      "description": "Off leash dog park in NW Calagry, neighborhood park.",
      "fenced":"Partially",
      "riverAccess":"false",
      "agilityEquiptment":"false"
    },
    "geometry": {
      "coordinates": [-114.23245000297115, 51.128514626488005],
      "type": "Point"
    }
  },
  {
    "type": "Feature",
    "properties": {
      "title": "Varsity",
      "quadrant":"NW",
      "address": "216R Valencia RD NW",
      "description": "Off leash dog park in NW Calagry, very open neighborhood park.",
      "fenced":"Partially",
      "riverAccess":"false",
      "agilityEquiptment":"false"
    },
    "geometry": {
      "coordinates": [ -114.1612163337573, 51.09721656128158],
      "type": "Point"
    }
  },
  {
    "type": "Feature",
    "properties": {
      "title": "West Hillhrust",
      "quadrant":"NW",
      "address": "1025 19 ST NW",
      "description": "Off leash dog park in NW Calagry, neighborhood park.",
      "fenced":"Partially",
      "riverAccess":"false",
      "agilityEquiptment":"false"
    },
    "geometry": {
      "coordinates": [-114.10640479815197, 51.06090160340049],
      "type": "Point"
    }
  },
    {
        "type": "Feature",
        "properties": {
          "title": "Wildwood (Edworthy Park) Area 2",
          "quadrant":"SW",
          "address": "3V52+W76 Calgary",
          "description": "Off leash dog park in SW Calagry, great scenic walks and river access.",
          "fenced":"None",
          "riverAccess":"true",
          "agilityEquiptment":"false"
        },
        "geometry": {
          "coordinates": [-114.149357, 51.059798],
          "type": "Point"
        }
      },
       


    {
        "type": "Feature",
        "properties": {
          "title": "Willow Park",
          "quadrant":"SE",
          "address": "607 Willacy DR SE",
          "description": " Off leash area in SE of Calgary, a small neighborhood park next to a highway.",
          "fenced":"Partially",
          "riverAccess":"false",
          "agilityEquiptment":" "
        },
        "geometry": {
          "coordinates": [-114.05175844392174, 50.94875095257066],
          "type": "Point"
        }
      },
    {
    "type": "Feature",
    "properties": {
      "title": "Winston Heights Mountview (Elks Park)",
      "quadrant":"NE",
      "address": "36 Moncton RD NE",
      "description": "Off leash dog park in NE Calagry, for nice walks with tall grass and nice trails.",
      "fenced":"None",
      "riverAccess":"false",
      "agilityEquiptment":"false"
    },
    "geometry": {
      "coordinates": [-114.04531369134986, 51.07385729518579],
      "type": "Point"
    }
    
}

]
  

